City,Lat,Lng,Max Temp,Humidity,Cloudiness,Wind Speed,Country,Date
Yellowknife,62.456,-114.3525,5.87,60,100,2.68,CA,1633720500
Atuona,-9.8,-139.0333,25.53,72,6,7.06,PF,1633720640
Mataura,-46.1927,168.8643,9.71,100,100,1.35,NZ,1633720640
Narsaq,60.9167,-46.05,6.12,50,2,1.71,GL,1633720641
Bathsheba,13.2167,-59.5167,28.34,78,40,5.14,BB,1633720641
Maragogi,-9.0122,-35.2225,26.4,72,100,4.15,BR,1633720641
Okha,53.5739,142.9478,5.57,69,94,7.93,RU,1633720642
Paragominas,-2.9667,-47.4833,32.35,45,100,1.51,BR,1633720530
Hithadhoo,-0.6,73.0833,28.19,71,93,3.82,MV,1633720643
Alice Springs,-23.7,133.8833,21.75,53,100,0.0,AU,1633720643
Vaini,-21.2,-175.2,24.09,94,40,1.03,TO,1633720643
Rzhaksa,52.1338,42.0264,4.71,57,0,1.81,RU,1633720644
Vardø,70.3705,31.1107,1.99,87,75,2.57,NO,1633720644
Necochea,-38.5473,-58.7368,16.19,48,8,2.04,AR,1633720645
Busselton,-33.65,115.3333,9.47,82,81,4.08,AU,1633720645
Bassano del Grappa,45.7676,11.7357,16.3,78,100,0.92,IT,1633720646
Ushuaia,-54.8,-68.3,7.79,57,40,10.8,AR,1633720646
Chifeng,42.2683,118.9636,11.19,69,100,2.49,CN,1633720516
Umluj,25.0213,37.2685,28.7,64,0,3.71,SA,1633720647
Bethel,41.3712,-73.414,24.11,73,90,2.06,US,1633720647
Tuktoyaktuk,69.4541,-133.0374,-2.0,100,90,3.6,CA,1633720648
Ribeira Grande,38.5167,-28.7,21.22,64,20,1.54,PT,1633720648
Rikitea,-23.1203,-134.9692,23.33,75,8,4.29,PF,1633720648
Ambilobe,-13.2,49.05,24.83,62,85,2.57,MG,1633720648
New Norfolk,-42.7826,147.0587,12.73,57,85,1.34,AU,1633720649
Talnakh,69.4865,88.3972,-1.99,97,100,1.8,RU,1633720649
Port Elizabeth,-33.918,25.5701,15.05,82,91,4.2,ZA,1633720650
Avarua,-21.2078,-159.775,25.03,69,75,2.06,CK,1633720650
Dolisie,-4.1997,12.6739,26.09,73,99,1.35,CG,1633720650
Deputatsky,69.3,139.9,-9.45,95,96,1.69,RU,1633720651
Albany,42.6001,-73.9662,24.7,68,69,1.61,US,1633720508
Bluff,-46.6,168.3333,9.89,93,100,3.58,NZ,1633720652
Tasiilaq,65.6145,-37.6368,3.09,64,100,4.18,GL,1633720652
Kupang,-10.1667,123.5833,24.96,84,30,2.24,ID,1633720653
Tateyama,34.9833,139.8667,22.23,82,8,2.36,JP,1633720653
George Town,5.4112,100.3354,27.16,93,40,1.54,MY,1633720652
Thompson,55.7435,-97.8558,10.09,50,75,2.57,CA,1633720653
Saldanha,-33.0117,17.9442,16.03,88,82,4.01,ZA,1633720654
Khatanga,71.9667,102.5,-8.25,98,95,0.88,RU,1633720654
Mahébourg,-20.4081,57.7,22.16,78,75,4.12,MU,1633720655
Bambous Virieux,-20.3428,57.7575,22.14,78,75,4.12,MU,1633720655
Jamestown,42.097,-79.2353,25.16,64,20,3.09,US,1633720448
Gao,16.6362,1.637,32.23,9,4,5.16,ML,1633720656
Afşin,38.2477,36.914,14.3,26,4,0.51,TR,1633720656
Mar del Plata,-38.0023,-57.5575,14.01,64,0,3.58,AR,1633720657
Klaksvík,62.2266,-6.589,10.51,95,89,7.16,FO,1633720657
Marsh Harbour,26.5412,-77.0636,28.03,65,87,2.76,BS,1633720658
Strezhevoy,60.7333,77.5889,6.99,78,100,7.23,RU,1633720658
Yulara,-25.2406,130.9889,20.91,35,11,3.6,AU,1633720658
Broome,42.2506,-75.833,24.55,65,1,0.45,US,1633720659
Cherskiy,68.75,161.3,-19.46,100,85,1.35,RU,1633720659
Strathblane,55.986,-4.3066,15.51,88,100,1.54,GB,1633720659
Hilo,19.7297,-155.09,24.6,88,90,3.6,US,1633720565
Tahe,52.3333,124.7333,2.55,90,100,1.45,CN,1633720660
Muros,42.7762,-9.0603,20.28,90,100,0.84,ES,1633720660
Loreto,22.2667,-101.9667,23.52,31,0,5.36,MX,1633720661
Naze,28.3667,129.4833,24.82,83,98,8.64,JP,1633720662
Saint George,37.1041,-113.5841,16.33,86,90,1.79,US,1633720545
Kapaa,22.0752,-159.319,27.18,69,40,2.68,US,1633720663
Fortuna,40.5982,-124.1573,17.33,62,44,1.34,US,1633720664
Sitka,57.0531,-135.33,8.94,81,90,5.14,US,1633720665
Hobart,-42.8794,147.3294,12.92,61,90,0.89,AU,1633720457
Arraial do Cabo,-22.9661,-42.0278,21.98,60,75,2.06,BR,1633720666
Manokwari,-0.8667,134.0833,25.87,81,86,1.39,ID,1633720666
Coahuayana Viejo,18.7333,-103.6833,33.71,60,43,2.07,MX,1633720666
Mayo,38.8876,-76.5119,26.32,60,1,2.24,US,1633720667
Omboué,-1.5746,9.2618,25.25,89,100,3.6,GA,1633720667
Butaritari,3.0707,172.7902,28.26,69,43,5.99,KI,1633720668
East London,-33.0153,27.9116,18.53,83,1,5.21,ZA,1633720669
Hermanus,-34.4187,19.2345,17.11,83,83,5.51,ZA,1633720670
Cape Town,-33.9258,18.4232,15.62,93,75,4.63,ZA,1633720526
Itarema,-2.9248,-39.9167,28.85,68,13,7.42,BR,1633720670
Olovyannaya,50.95,115.5667,5.09,50,100,1.95,RU,1633720671
Port Alfred,-33.5906,26.891,17.44,85,25,6.36,ZA,1633720671
Taoudenni,22.6783,-3.9836,35.87,8,2,3.24,ML,1633720671
Samarai,-10.6167,150.6667,26.64,84,49,6.31,PG,1633720672
Gijang,35.2442,129.2139,22.28,84,83,4.84,KR,1633720672
Nome,64.5011,-165.4064,3.04,87,90,9.26,US,1633720672
Yuli,9.6989,10.2744,27.23,59,100,1.55,NG,1633720673
Verkhnetulomskiy,68.6073,31.7962,-1.93,86,100,0.94,RU,1633720674
Havelock,34.8791,-76.9013,28.32,79,75,3.13,US,1633720674
Esperance,-33.8667,121.9,12.41,70,16,6.3,AU,1633720674
Collie,-33.3667,116.15,7.21,89,100,1.37,AU,1633720675
Punta Arenas,-53.15,-70.9167,9.06,43,20,17.49,CL,1633720474
Avera,33.194,-82.5271,27.73,73,74,1.9,US,1633720676
Puqi,29.7167,113.8833,18.87,87,96,2.47,CN,1633720676
Truckee,39.328,-120.1833,13.13,70,90,0.0,US,1633720434
Zdvinsk,54.7021,78.661,5.16,80,11,5.1,RU,1633720677
Lüderitz,-26.6481,15.1594,13.78,78,0,4.94,NA,1633720677
Cutervo,-6.379,-78.8157,18.63,59,99,2.24,PE,1633720678
Pisco,-13.7,-76.2167,20.03,68,0,7.2,PE,1633720678
Guerrero Negro,27.9769,-114.0611,25.52,57,23,8.71,MX,1633720679
Chokurdakh,70.6333,147.9167,-13.39,91,95,3.42,RU,1633720679
Tura,25.5198,90.2201,23.14,91,5,0.79,IN,1633720681
Grindavik,63.8424,-22.4338,9.39,93,75,7.72,IS,1633720682
Puerto Ayora,-0.7393,-90.3518,26.98,87,98,3.13,EC,1633720683
Alta Floresta,-9.8756,-56.0861,33.9,55,0,4.12,BR,1633720683
Conceição da Barra,-18.5933,-39.7322,24.37,65,89,5.13,BR,1633720684
Uthal,25.8072,66.6219,27.5,73,0,2.35,PK,1633720684
San Quintín,30.4833,-115.95,23.25,64,59,8.49,MX,1633720685
Kolondiéba,11.0882,-6.8926,27.65,67,67,3.67,ML,1633720685
São Félix do Xingu,-6.6447,-51.995,38.55,21,99,2.26,BR,1633720686
Esil,51.9556,66.4042,5.76,63,0,2.08,KZ,1633720686
Moranbah,-22.0016,148.0466,17.92,65,5,3.41,AU,1633720686
Flin Flon,54.7682,-101.865,12.91,41,20,3.6,CA,1633720545
Mordovo,52.0834,40.77,5.16,55,0,1.97,RU,1633720687
Ahipara,-35.1667,173.1667,14.68,90,99,3.71,NZ,1633720687
Dunedin,-45.8742,170.5036,11.56,75,100,4.02,NZ,1633720687
Cururupu,-1.8283,-44.8683,30.57,56,18,3.55,BR,1633720688
Cidreira,-30.1811,-50.2056,18.27,69,100,6.41,BR,1633720688
Chopda,21.25,75.3,28.76,66,100,2.34,IN,1633720689
Lompoc,34.6391,-120.4579,21.43,54,1,7.72,US,1633720689
Laas,46.6166,10.7002,10.9,91,54,0.08,IT,1633720690
St. George's,12.0564,-61.7485,28.82,79,75,7.2,GD,1633720690
Kondinskoye,59.6481,67.41,6.91,66,100,7.27,RU,1633720691
Lebu,-37.6167,-73.65,13.73,72,22,4.18,CL,1633720691
Srednekolymsk,67.45,153.6833,-13.81,94,65,1.34,RU,1633720692
Cabo San Lucas,22.8909,-109.9124,36.61,46,1,4.12,MX,1633720628
Lorengau,-2.0226,147.2712,26.99,72,13,2.64,PG,1633720692
Bangolo,7.0069,-7.475,24.8,79,99,0.8,CI,1633720693
Isla Vista,34.4133,-119.861,22.84,69,75,3.09,US,1633720693
Neturhāt,23.4833,84.2667,17.85,90,1,1.29,IN,1633720694
Puerto López,4.0845,-72.956,28.4,69,49,1.74,CO,1633720694
Saint Anthony,45.0205,-93.218,23.41,79,90,0.45,US,1633720695
Tianpeng,30.9866,103.9393,16.26,91,100,1.12,CN,1633720695
Hirara,24.8,125.2833,27.52,75,100,8.91,JP,1633720696
Qaanaaq,77.484,-69.3632,-4.43,74,100,3.16,GL,1633720696
Humaitá,-7.5061,-63.0208,26.45,78,100,0.62,BR,1633720697
Copiapó,-27.3667,-70.3333,14.83,31,0,4.4,CL,1633720692
Husavik,66.0449,-17.3389,7.95,88,100,0.92,IS,1633720697
Chui,-33.6971,-53.4616,14.13,53,76,5.03,UY,1633720698
Itoman,26.1247,127.6694,27.01,74,20,3.09,JP,1633720698
Airai,-8.9266,125.4092,15.41,60,46,1.1,TL,1633720699
Løding,67.3,14.75,10.95,95,90,3.13,NO,1633720699
Port Hedland,-20.3167,118.5667,21.03,83,0,4.12,AU,1633720700
Podosinovets,60.2776,47.0659,6.98,88,100,2.68,RU,1633720700
Heraclea,37.5133,34.0467,14.19,31,0,0.84,TR,1633720701
Krasnosel'kup,65.7,82.4667,5.07,95,100,6.86,RU,1633720701
Tornio,65.8481,24.1466,8.01,98,100,2.12,FI,1633720703
Ukiah,39.1502,-123.2078,18.91,45,1,1.34,US,1633720703
Kysyl-Syr,63.8986,122.7617,-2.79,94,100,2.02,RU,1633720704
Coari,-4.085,-63.1414,29.89,62,62,2.02,BR,1633720704
Saint-François,46.4154,3.9054,13.15,90,90,1.03,FR,1633720704
Chapais,49.7834,-74.8492,19.88,54,50,1.89,CA,1633720705
High Level,58.5169,-117.136,6.06,65,40,2.06,CA,1633720705
Barrow,71.2906,-156.7887,0.01,80,90,7.2,US,1633720706
Grand Gaube,-20.0064,57.6608,22.22,76,1,2.68,MU,1633720706
Dalvik,65.9702,-18.5286,7.96,96,100,2.36,IS,1633720707
Black River,18.0264,-77.8487,30.0,64,78,3.17,JM,1633720707
Dikson,73.5069,80.5464,-2.42,81,100,12.83,RU,1633720708
Rawson,-43.3002,-65.1023,24.72,17,0,6.18,AR,1633720441
Saint Paul Harbor,57.79,-152.4072,7.31,78,23,6.39,US,1633720708
Sassandra,4.95,-6.0833,25.18,89,62,2.39,CI,1633720709
Atambua,-9.1061,124.8925,22.34,78,12,1.42,ID,1633720710
Dolores,-36.3132,-57.6792,15.7,49,80,4.54,AR,1633720710
Bodri,23.1667,81.4333,22.97,68,0,1.81,IN,1633720711
Yerbogachën,61.2767,108.0108,1.73,90,100,5.37,RU,1633720711
São João da Barra,-21.6403,-41.0511,22.05,69,100,3.03,BR,1633720711
Saskylakh,71.9167,114.0833,-7.23,96,100,2.54,RU,1633720712
Vostok,46.4856,135.8833,1.41,75,0,2.18,RU,1633720712
Lata,40.1629,-8.3327,18.91,77,6,1.32,PT,1633720713
Ostrovnoy,68.0531,39.5131,3.2,89,100,5.02,RU,1633720713
Kruisfontein,-34.0033,24.7314,13.82,78,45,2.52,ZA,1633720713
Nizhniy Kuranakh,58.8353,125.4869,1.31,91,100,4.08,RU,1633720714
Pangkalanbuun,-2.6833,111.6167,23.85,96,92,1.04,ID,1633720714
Tiksi,71.6872,128.8694,-9.63,89,100,4.31,RU,1633720715
Flinders,-34.5833,150.8552,12.89,85,97,0.45,AU,1633720716
Yārāda,17.65,83.2667,29.18,84,40,2.06,IN,1633720716
São Filipe,14.8961,-24.4956,26.99,77,6,4.78,CV,1633720717
Caravelas,-17.7125,-39.2481,24.11,76,100,5.23,BR,1633720717
Baoshan,46.5586,131.4244,7.11,58,29,2.84,CN,1633720718
Haines Junction,60.7522,-137.5108,2.97,75,100,4.12,CA,1633720718
Teluk Nibung,3.001,99.8164,24.95,91,90,1.59,ID,1633720719
Usinsk,65.9939,57.5281,3.72,67,100,14.62,RU,1633720719
Evensk,61.95,159.2333,-5.51,62,26,3.28,RU,1633720719
Saint-Philippe,-21.3585,55.7679,20.77,81,59,5.9,RE,1633720720
Trelew,-43.249,-65.3051,27.3,11,0,6.23,AR,1633720573
Santa Fe,-31.6333,-60.7,22.79,37,82,3.58,AR,1633720483
Harlingen,26.1906,-97.6961,32.96,47,1,1.54,US,1633720722
Buala,-8.145,159.5921,26.28,85,88,3.7,SB,1633720722
Henties Bay,-22.116,14.2845,13.25,87,0,4.32,NA,1633720722
Juneau,58.3019,-134.4197,8.03,98,90,1.79,US,1633720514
Nanortalik,60.1432,-45.2371,4.15,57,14,1.73,GL,1633720723
Bredasdorp,-34.5322,20.0403,17.62,68,97,5.66,ZA,1633720724
Lagoa,39.05,-27.9833,20.45,60,0,2.45,PT,1633720724
Puerto Colombia,10.9878,-74.9547,28.05,71,4,4.79,CO,1633720725
Ponta do Sol,32.6667,-17.1,23.89,78,56,1.74,PT,1633720726
Muncar,-8.4333,114.3333,24.1,86,97,2.46,ID,1633720727
Provideniya,64.3833,-173.3,1.37,93,100,6.18,RU,1633720727
Viedma,-40.8135,-62.9967,23.73,17,0,5.13,AR,1633720728
Gouré,13.9835,10.2704,32.23,14,98,2.74,NE,1633720728
Malanje,-9.5402,16.341,25.27,43,100,1.45,AO,1633720729
Lufilufi,-13.8745,-171.5986,27.88,73,71,5.52,WS,1633720729
Timaru,-44.4,171.25,11.71,97,100,2.33,NZ,1633720730
Shakawe,-18.3667,21.85,27.85,28,73,1.41,BW,1633720730
Kaitangata,-46.2817,169.8464,9.37,96,100,2.01,NZ,1633720730
Yen Bai,21.7,104.8667,25.22,79,100,1.75,VN,1633720731
Remedios,22.4947,-79.5458,32.51,66,17,5.55,CU,1633720662
Philadelphia,39.9523,-75.1638,27.4,58,75,0.45,US,1633720570
Katsuura,35.1333,140.3,22.28,84,5,2.48,JP,1633720732
Inhambane,-23.865,35.3833,21.65,66,0,5.46,MZ,1633720732
Ancud,-41.8697,-73.8203,16.9,71,0,2.74,CL,1633720732
Rubiataba,-15.1644,-49.8033,30.72,38,98,1.8,BR,1633720733
Hong Kong,22.2855,114.1577,27.03,94,100,0.89,HK,1633720457
Kavieng,-2.5744,150.7967,27.42,77,100,2.25,PG,1633720733
Helena,46.5927,-112.0361,15.1,62,75,1.54,US,1633720734
Houma,29.5958,-90.7195,31.11,54,0,3.23,US,1633720734
Comodoro Rivadavia,-45.8667,-67.5,21.92,21,0,4.63,AR,1633720502
Forsytheganj,52.6333,29.7333,4.47,79,0,2.9,BY,1633720736
Lavrentiya,65.5833,-171.0,1.53,94,100,9.0,RU,1633720736
Atar,20.5169,-13.0499,36.05,7,100,3.12,MR,1633720737
Iqaluit,63.7506,-68.5145,-0.15,93,90,2.57,CA,1633720737
Coquimbo,-29.9533,-71.3436,16.85,55,20,7.2,CL,1633720581
Kenai,60.5544,-151.2583,5.08,98,90,0.0,US,1633720738
Pahrump,36.2083,-115.9839,21.8,50,68,0.89,US,1633720738
Petropavlovsk-Kamchatskiy,53.0452,158.6483,-1.67,74,75,2.0,RU,1633720739
Xingcheng,40.6167,120.7167,13.95,61,100,1.39,CN,1633720740
Ixtapa,20.7,-105.2,32.35,70,1,4.12,MX,1633720152
Carnarvon,-24.8667,113.6333,17.04,72,1,10.8,AU,1633720740
Zeya,53.75,127.2667,0.85,77,100,1.6,RU,1633720740
Bengkulu,-3.8004,102.2655,24.4,90,99,2.51,ID,1633720741
Baghdad,33.3406,44.4009,22.95,23,0,4.63,IQ,1633720623
Severo-Kuril'sk,50.6789,156.125,7.21,84,89,4.78,RU,1633720742
Padang,-0.9492,100.3543,25.44,86,88,1.25,ID,1633720742
Mogok,22.9167,96.5,18.39,97,7,1.08,MM,1633720743
Pecos,31.4229,-103.4932,34.05,16,1,1.54,US,1633720743
Chkalovsk,56.7647,43.2433,0.77,69,0,4.21,RU,1633720744
Longyearbyen,78.2186,15.6401,-8.09,73,0,5.66,SJ,1633720744
Palmas Bellas,9.2319,-80.0867,31.3,79,100,2.49,PA,1633720745
Port Blair,11.6667,92.75,26.14,88,100,9.76,IN,1633720745
Cuamba,-14.8031,36.5372,23.1,26,1,1.34,MZ,1633720746
Alofi,-19.0595,-169.9187,25.94,83,0,4.12,NU,1633720746
Pundaguitan,6.3711,126.1689,28.65,73,100,3.15,PH,1633720747
Phuket,8.0,98.25,27.83,89,40,4.63,TH,1633720747
Yuzhne,46.6221,31.1013,11.12,56,100,6.85,UA,1633720747
Malaut,30.2167,74.4833,25.89,35,0,2.76,IN,1633720748
Kloulklubed,7.0419,134.2556,28.93,80,100,10.24,PW,1633720748
Santa Vitória do Palmar,-33.5189,-53.3681,14.77,53,33,4.96,BR,1633720749
Qasigiannguit,68.8193,-51.1922,-1.86,74,13,0.98,GL,1633720749
Kitgum,3.2783,32.8867,19.98,93,97,1.58,UG,1633720749
Payson,40.0444,-111.7321,16.06,68,90,3.58,US,1633720750
Tīkamgarh,24.745,78.8333,25.3,55,0,1.91,IN,1633720750
Ketchikan,55.3422,-131.6461,10.26,81,90,4.12,US,1633720751
Vila do Maio,15.1333,-23.2167,31.44,81,13,5.39,CV,1633720751
San Patricio,28.017,-97.5169,32.23,40,0,3.84,US,1633720752
Upernavik,72.7868,-56.1549,-3.02,50,100,2.38,GL,1633720752
Asău,46.4333,26.4,7.51,43,100,2.82,RO,1633720752
Kiunga,-6.1219,141.2906,22.87,100,99,1.09,PG,1633720753
Tuatapere,-46.1333,167.6833,9.9,96,100,2.12,NZ,1633720753
Praia,14.9215,-23.5087,31.3,48,40,2.06,CV,1633720754
Le Port,-20.9373,55.2919,21.0,71,2,1.67,RE,1633720754
Mahanje,-9.9333,35.3333,19.39,69,1,1.79,TZ,1633720754
Urucará,-2.5364,-57.76,32.54,50,100,1.26,BR,1633720755
Palu,-0.8917,119.8707,24.1,96,100,1.36,ID,1633720755
Geraldton,-28.7667,114.6,8.23,87,4,3.6,AU,1633720755
Morant Bay,17.8815,-76.4093,30.9,70,46,3.89,JM,1633720756
Baker City,44.7749,-117.8344,9.8,81,90,0.0,US,1633720756
Aberystwyth,52.4155,-4.0829,16.28,92,100,2.12,GB,1633720756
Riyadh,24.6877,46.7219,28.08,18,0,4.2,SA,1633720689
Caucayá,-0.1934,-74.7819,33.35,46,100,0.58,CO,1633720757
Bilma,18.6853,12.9164,30.11,15,89,2.22,NE,1633720758
Noumea,-22.2763,166.4572,17.99,72,1,3.16,NC,1633720758
Tupik,54.4253,119.9327,-1.17,74,100,1.5,RU,1633720759
Freeport,40.6576,-73.5832,26.32,71,75,0.89,US,1633720759
Port-Cartier,50.0334,-66.8654,10.06,49,10,2.53,CA,1633720760
Tinskoy,56.1525,96.9161,3.09,82,90,5.42,RU,1633720760
Rudnogorsk,57.2639,103.7519,0.49,97,100,3.78,RU,1633720761
Galesong,-5.3166,119.3661,24.01,71,100,4.57,ID,1633720761
Elizabeth City,36.2946,-76.2511,25.57,75,100,5.17,US,1633720762
Cockburn Town,21.4612,-71.1419,28.98,65,75,3.09,TC,1633720762
Sola,-13.8833,167.55,26.52,81,79,8.39,VU,1633720762
Timrå,62.487,17.3257,8.82,100,90,1.03,SE,1633720763
Belaya Gora,68.5333,146.4167,-9.51,84,97,2.24,RU,1633720763
Province of Mantua,45.1667,10.7833,17.06,78,94,5.52,IT,1633720764
Huarmey,-10.0681,-78.1522,20.41,76,49,5.7,PE,1633720764
Kununurra,-15.7667,128.7333,23.99,69,28,1.54,AU,1633720477
Northam,51.0333,-4.2167,16.48,88,56,3.48,GB,1633720765
Vestmannaeyjar,63.4427,-20.2734,9.72,92,68,8.46,IS,1633720765
Kukushtan,57.6464,56.4952,3.79,74,74,4.31,RU,1633720766
Harper,4.375,-7.7169,25.66,87,100,3.4,LR,1633720766
Bonfim,3.0833,-59.95,32.89,49,100,1.26,BR,1633720767
Ségou,13.4317,-6.2157,33.99,27,78,2.31,ML,1633720767
Demba,-5.51,22.2667,23.36,65,7,1.23,CD,1633720768
Ponta Delgada,37.7333,-25.6667,23.06,73,20,3.6,PT,1633720768
Hualmay,-11.0964,-77.6139,19.07,79,57,5.0,PE,1633720769
Lindi,-10.0,39.7167,22.57,78,0,1.52,TZ,1633720769
West Wendover,40.7391,-114.0733,12.56,76,90,3.09,US,1633720478
Letterkenny,54.95,-7.7333,16.94,95,100,4.09,IE,1633720770
Faanui,-16.4833,-151.75,25.52,72,1,2.26,PF,1633720770
Pāsighāt,28.0667,95.3333,23.87,88,1,1.3,IN,1633720770
Cravo Norte,6.3017,-70.2041,26.5,80,100,2.13,CO,1633720771
Rocha,-34.4833,-54.3333,13.02,49,100,4.62,UY,1633720771
Norman Wells,65.282,-126.8329,0.02,93,75,1.54,CA,1633720772
Lázaro Cárdenas,17.9583,-102.2,30.26,70,100,2.12,MX,1633720772
Akureyri,65.6835,-18.0878,7.96,87,75,3.09,IS,1633720772
Leningradskiy,69.3833,178.4167,-4.98,97,100,1.0,RU,1633720773
Chemodanovka,53.2316,45.2474,7.46,31,5,1.15,RU,1633720773
Broken Hill,-31.95,141.4333,14.29,26,0,2.23,AU,1633720774
San Jose,37.3394,-121.895,19.82,45,20,2.68,US,1633720585
Salalah,17.0151,54.0924,27.05,83,0,1.54,OM,1633720774
Ilulissat,69.2167,-51.1,-1.99,34,1,3.09,GL,1633720775
La Macarena,2.1837,-73.7849,29.26,71,100,1.47,CO,1633720775
Assaí,-23.3733,-50.8414,27.92,51,6,1.9,BR,1633720776
Stykkisholmur,65.0757,-22.7297,5.56,93,100,7.81,IS,1633720776
‘Āhuimanu,21.4447,-157.8378,28.84,61,40,6.69,US,1633720776
Aksu,41.1231,80.2644,8.86,41,0,2.7,CN,1633720777
Puro,12.4841,123.3827,26.6,86,100,6.36,PH,1633720777
Medicine Hat,50.0501,-110.6683,13.84,27,40,0.45,CA,1633720738
Tarata,-17.6167,-66.0167,24.68,36,81,6.25,BO,1633720778
Clyde River,70.4692,-68.5914,-0.65,76,100,3.47,CA,1633720778
Zlatibor,43.7168,19.7,-0.17,98,100,3.32,RS,1633720778
Banyuwangi,-8.2325,114.3576,23.55,89,84,2.3,ID,1633720779
Roald,62.5833,6.1333,14.95,100,90,2.06,NO,1633720779
Bohmte,52.3667,8.3167,13.1,88,0,3.01,DE,1633720780
Barreirinha,-2.7933,-57.07,33.74,45,98,0.73,BR,1633720780
Gomel,52.4345,30.9754,5.99,75,0,3.0,BY,1633720781
Half Moon Bay,37.4636,-122.4286,20.02,58,20,0.45,US,1633720782
Kutum,14.2,24.6667,28.05,19,8,4.47,SD,1633720782
Nuuk,64.1835,-51.7216,3.34,44,1,2.06,GL,1633720581
Delvāda,20.7667,71.0333,27.74,82,100,2.09,IN,1633720783
Lewistown,40.5992,-77.5714,24.87,73,90,3.09,US,1633720783
Pozo Colorado,-23.4923,-58.7972,35.7,29,100,2.76,PY,1633720784
Maceió,-9.6658,-35.7353,28.69,74,20,6.17,BR,1633720784
Nicşeni,47.8667,26.6333,7.8,56,99,2.55,RO,1633720785
Chicama,-7.8447,-79.1469,18.3,68,100,4.82,PE,1633720786
Marsá Maţrūḩ,31.3525,27.2453,22.11,68,0,2.57,EG,1633720786
Vanavara,60.34,102.2797,1.87,97,100,4.78,RU,1633720787
Puerto Carreño,6.189,-67.4859,29.72,69,97,2.51,CO,1633720787
Kamaishi,39.2667,141.8833,17.24,89,100,2.59,JP,1633720788
Llanes,43.4198,-4.7549,17.16,76,0,4.95,ES,1633720788
Nishihara,26.1842,127.7558,26.6,74,20,3.09,JP,1633720789
Narón,43.5167,-8.1528,17.55,80,100,2.36,ES,1633720789
Olafsvik,64.8945,-23.7142,7.02,93,100,11.69,IS,1633720790
Uyuni,-20.4597,-66.825,17.44,21,31,8.21,BO,1633720790
Faya,18.3851,42.4509,21.06,47,100,7.37,SA,1633720791
Boffa,10.1667,-14.0333,27.5,87,84,2.11,GN,1633720688
Naryan-Mar,67.6713,53.087,2.86,73,86,9.58,RU,1633720792
Stokmarknes,68.5646,14.9108,8.05,81,75,3.09,NO,1633720793
Yaoundé,3.8667,11.5167,20.9,97,99,0.37,CM,1633720793
Yumen,40.2833,97.2,-0.17,52,11,7.07,CN,1633720793
Tabuk,17.4189,121.4443,22.84,92,99,1.0,PH,1633720794
Žarnovica,48.4812,18.7157,11.48,69,8,1.03,SK,1633720794
Cairo,30.0626,31.2497,24.84,46,0,6.69,EG,1633720269
Severo-Yeniseyskiy,60.3725,93.0408,1.42,97,100,5.93,RU,1633720795
Isangel,-19.55,169.2667,21.85,81,44,3.93,VU,1633720795
Constitución,-35.3333,-72.4167,15.36,56,43,2.73,CL,1633720796
Kharela,25.55,79.8167,27.89,43,0,1.93,IN,1633720796
Saint-Joseph,-21.3667,55.6167,20.21,79,31,6.12,RE,1633720796
Rāmjībanpur,22.8333,87.6167,28.05,74,100,2.06,IN,1633720797
Belyy Yar,53.6039,91.3903,4.94,70,0,6.0,RU,1633720797
Palmer,42.1584,-72.3287,23.88,56,40,0.0,US,1633720798
Beira,-19.8436,34.8389,22.55,64,0,4.68,MZ,1633720644
Moquegua,-17.1956,-70.9353,25.58,29,12,5.16,PE,1633720798
Antofagasta,-23.65,-70.4,16.6,70,3,4.86,CL,1633720563
Inírida,3.8653,-67.9239,32.29,52,42,1.12,CO,1633720799
Udachny,66.4167,112.4,-0.37,96,100,8.81,RU,1633720799
Gizo Government Station,-8.103,156.8419,27.83,79,70,4.53,SB,1633720799
Marquard,-28.6645,27.4305,16.03,22,0,1.58,ZA,1633720800
Waitati,-45.75,170.5667,11.56,75,100,2.56,NZ,1633720800
Najrān,17.4924,44.1277,27.36,38,100,6.8,SA,1633720801
Mango,27.9797,-82.3065,31.08,79,75,0.0,US,1633720802
Umba,66.6871,34.3429,3.77,72,100,0.78,RU,1633720802
Tāndā,26.55,82.65,24.61,65,0,1.53,IN,1633720803
Turaif,31.6725,38.6637,23.14,28,0,6.17,SA,1633720804
Keïta,14.7551,5.7749,33.3,16,8,3.42,NE,1633720804
Marawi,7.9986,124.2928,19.25,95,100,1.41,PH,1633720805
Malartic,48.1335,-78.1328,22.06,50,7,2.22,CA,1633720805
Prince George,53.9166,-122.753,8.69,62,90,6.17,CA,1633720680
Zapopan,20.7167,-103.4,27.75,51,100,1.79,MX,1633720116
Paamiut,61.994,-49.6678,2.16,59,0,4.3,GL,1633720807
Mount Gambier,-37.8333,140.7667,6.59,88,21,2.61,AU,1633720808
Batticaloa,7.7102,81.6924,27.3,73,100,1.62,LK,1633720808
Empalme,27.9667,-110.8167,38.77,34,20,6.17,MX,1633720808
Galle,6.0367,80.217,26.72,80,100,4.13,LK,1633720567
County Wicklow,53.0,-6.4167,13.31,93,100,2.82,IE,1633720809
Les Herbiers,46.8667,-1.0167,14.44,73,9,4.24,FR,1633720762
Fort Nelson,58.8053,-122.7002,6.77,53,20,2.06,CA,1633720810
Três Lagoas,-20.7511,-51.6783,32.58,36,97,2.07,BR,1633720810
Kavaratti,10.5669,72.642,27.68,81,50,6.12,IN,1633720811
Katherine,-14.4667,132.2667,29.18,51,23,3.09,AU,1633720811
Ust'-Kut,56.7938,105.7672,1.28,92,100,2.66,RU,1633720812
Kaili,-3.4626,120.2147,18.86,89,90,1.31,ID,1633720812
Kuna,43.4918,-116.4201,17.49,76,1,0.45,US,1633720812
Khandyga,62.6667,135.6,-4.89,97,69,1.56,RU,1633720813
Souillac,-20.5167,57.5167,22.21,78,75,4.12,MU,1633720813
Makakilo City,21.3469,-158.0858,28.18,55,1,6.17,US,1633720814
Kanie,35.1333,136.8,22.0,85,95,1.88,JP,1633720814
Biltine,14.5333,20.9167,32.39,16,8,3.41,TD,1633720815
Shar,49.5886,81.0453,3.84,72,24,3.06,KZ,1633720815
Gull Lake,50.1001,-108.4847,13.2,27,2,2.39,CA,1633720815
Migori,-1.0634,34.4731,18.77,87,38,0.79,KE,1633720816
Kawalu,-7.3817,108.2082,21.64,97,75,0.47,ID,1633720816
Yar-Sale,66.8333,70.8333,2.51,74,100,9.27,RU,1633720817
Vao,-22.6667,167.4833,20.57,61,100,5.13,NC,1633720817
Torbay,47.6666,-52.7314,7.93,82,75,6.69,CA,1633720818
Casper,42.8666,-106.3131,20.28,48,1,4.47,US,1633720818
Mahanoro,-19.9,48.8,20.83,73,95,2.03,MG,1633720819
Sioux Lookout,50.1001,-91.917,21.04,64,90,3.6,CA,1633720820
Birobidzhan,48.8,132.95,4.69,68,18,1.31,RU,1633720821
Manono,-7.3,27.4167,28.57,39,86,1.24,CD,1633720822
Mahajanga,-15.7167,46.3167,25.01,83,20,3.09,MG,1633720822
Vila Velha,-20.3297,-40.2925,21.97,73,90,4.12,BR,1633720823
Beringovskiy,63.05,179.3167,-0.24,97,100,4.95,RU,1633720823
Moskovskiy,55.5991,37.355,7.66,78,0,1.0,RU,1633720824
Bundaberg,-24.85,152.35,17.9,94,0,0.45,AU,1633720824
Hailun,47.45,126.9333,7.2,78,100,3.48,CN,1633720824
Berlevåg,70.8578,29.0864,0.89,67,100,1.94,NO,1633720825
Dzhebariki-Khaya,62.2167,135.8,-2.68,93,90,2.81,RU,1633720825
Bandarbeyla,9.4942,50.8122,26.13,79,87,7.15,SO,1633720826
Zhangye,38.9342,100.4517,2.32,64,99,6.54,CN,1633720826
Castro,-24.7911,-50.0119,21.27,74,99,1.61,BR,1633720827
Poum,-20.2333,164.0167,21.95,75,13,5.16,NC,1633720827
Pevek,69.7008,170.3133,-5.91,85,98,1.55,RU,1633720827
Kuril'sk,45.2333,147.8833,11.13,77,2,4.94,RU,1633720828
Catuday,16.2923,119.8062,26.24,81,100,2.66,PH,1633720828
Kiama,-34.6833,150.8667,12.99,88,93,3.34,AU,1633720829
Ardabil,38.2498,48.2933,4.75,100,75,5.14,IR,1633720829
Sirte,31.2089,16.5887,24.89,69,0,7.24,LY,1633720830
La Ronge,55.1001,-105.2842,15.14,26,1,3.6,CA,1633720830
Vila Franca do Campo,37.7167,-25.4333,22.89,76,9,1.98,PT,1633720831
Bonavista,48.6499,-53.1147,8.4,80,99,10.97,CA,1633720831
Bria,6.5423,21.9863,23.43,83,86,0.43,CF,1633720832
Socorro,31.6546,-106.3033,31.33,22,75,3.09,US,1633720832
College,64.8569,-147.8028,3.28,86,90,3.6,US,1633720833
Lubango,-14.9172,13.4925,22.44,37,94,1.46,AO,1633720833
Niğde,37.8333,34.75,10.05,29,0,0.62,TR,1633720833
Nema,57.5067,50.5011,4.17,75,100,3.0,RU,1633720834
Waingapu,-9.6567,120.2641,24.59,83,62,1.65,ID,1633720834
Goderich,43.7501,-81.7165,21.62,78,99,3.09,CA,1633720545
Kumul,42.8,93.45,3.06,39,0,2.7,CN,1633720835
Humberto de Campos,-2.5983,-43.4611,30.38,59,38,4.8,BR,1633720836
Baturaja,-4.1333,104.1667,23.08,92,35,1.06,ID,1633720836
Waddān,29.1614,16.139,27.41,28,0,3.44,LY,1633720836
Saint-Leu,-21.15,55.2833,20.48,74,1,6.91,RE,1633720837
Qaqortoq,60.7167,-46.0333,6.28,48,5,2.35,GL,1633720838
Port Lincoln,-34.7333,135.8667,12.26,89,100,3.26,AU,1633720838
Coos Bay,43.3665,-124.2179,14.06,90,90,1.54,US,1633720839
Honiara,-9.4333,159.95,25.39,88,98,2.69,SB,1633720839
Makungu,-8.7333,35.2833,17.38,83,11,1.43,TZ,1633720839
Khovd,48.0056,91.6419,-0.96,50,1,0.75,MN,1633720840
Preobrazheniye,42.9019,133.9064,11.73,60,4,2.3,RU,1633720840
Mitsamiouli,-11.3847,43.2844,24.29,76,1,3.84,KM,1633720842
Hobyo,5.3505,48.5268,25.73,82,1,10.98,SO,1633720843
Boysun,38.2061,67.1986,10.82,40,99,1.62,UZ,1633720843
Bayjī,34.9311,43.487,24.48,10,0,4.1,IQ,1633720844
Hailar,49.2,119.7,7.81,62,100,1.93,CN,1633720845
Laguna,38.421,-121.4238,20.06,59,90,2.24,US,1633720845
Balkhash,46.844,74.9804,5.73,43,0,5.39,KZ,1633720846
Mildura,-34.2,142.15,6.98,57,54,0.0,AU,1633720846
Porto-Novo,6.4965,2.6036,27.9,84,100,2.69,BJ,1633720847
San Antonio,29.4241,-98.4936,32.81,43,20,0.0,US,1633720694
Klamath Falls,42.2249,-121.7817,12.76,53,20,1.34,US,1633720638
Tailai,46.3833,123.4,10.02,66,100,4.09,CN,1633720848
Banjarmasin,-3.3244,114.591,25.08,92,100,0.94,ID,1633720849
Luancheng,37.8792,114.6517,13.09,82,100,0.14,CN,1633720849
Desnogorsk,54.1508,33.2815,3.94,77,0,1.56,RU,1633720850
Saint-Augustin,51.226,-58.6502,10.24,49,57,5.29,CA,1633720850
Djibouti,11.5,42.5,27.68,67,91,5.54,DJ,1633720851
Mossamedes,-15.1961,12.1522,19.24,74,100,3.13,AO,1633720851
Biak,-0.9131,122.8766,24.36,78,100,2.65,ID,1633720851
Samaná,19.2056,-69.3369,33.12,75,40,3.09,DO,1633720852
Batagay-Alyta,67.8006,130.4114,-9.34,69,100,1.69,RU,1633720852
Svobodnyy,51.4,128.1333,5.84,84,100,1.92,RU,1633720852
Enshi,30.3,109.4833,19.61,83,100,0.67,CN,1633720853
Omsukchan,62.5333,155.8,-14.36,91,76,1.71,RU,1633720853
Illapel,-31.6308,-71.1653,17.32,42,0,4.33,CL,1633720571
Kodinsk,58.6881,99.1844,2.75,98,100,3.93,RU,1633720854
Bowen,-20.0167,148.2333,21.2,78,0,3.96,AU,1633720855
Halifax,44.6453,-63.5724,15.12,46,20,2.24,CA,1633720527
Zhaotong,27.3167,103.7167,14.26,97,100,2.34,CN,1633720855
Nikolskoye,59.7035,30.7861,10.57,62,100,3.14,RU,1633720856
Khomutovo,52.4658,104.4025,1.34,94,100,2.92,RU,1633720856
Povenets,62.8487,34.8262,9.19,96,100,3.66,RU,1633720857
Labuhan,-6.8844,112.2051,25.75,74,57,3.05,ID,1633720857
Lebedinyy,58.5167,125.5167,-1.45,93,100,3.9,RU,1633720857
Ishigaki,24.3448,124.1572,27.79,77,100,8.42,JP,1633720858
Korla,41.7597,86.1469,6.14,33,0,1.72,CN,1633720858
Xai-Xai,-25.0519,33.6442,22.19,59,15,6.75,MZ,1633720859
Vanimo,-2.6741,141.3028,26.28,88,68,3.18,PG,1633720859
Kostek,43.3439,46.8541,10.72,69,23,6.36,RU,1633720859
Manatí,18.4275,-66.4921,32.57,77,25,6.63,PR,1633720860
Hambantota,6.1241,81.1185,26.75,81,100,7.26,LK,1633720860
Mehamn,71.0357,27.8492,4.1,70,100,2.51,NO,1633720861
Corn Island,12.1694,-83.0418,28.34,79,100,6.78,NI,1633720861
Izumo,35.3667,132.7667,19.97,91,28,3.5,JP,1633720862
Borogontsy,62.6683,131.1683,-4.55,96,53,2.22,RU,1633720863
Chateaubelair,13.2833,-61.25,28.34,89,40,0.0,VC,1633720863
North Bend,43.4065,-124.2243,14.02,90,90,1.54,US,1633720864
Vyartsilya,62.1764,30.693,10.19,93,100,4.25,RU,1633720864
São José da Coroa Grande,-8.8978,-35.1478,26.6,72,100,4.18,BR,1633720864
Teruel,40.6667,-0.6667,14.98,50,61,1.04,ES,1633720865
Dagana,16.5165,-15.5068,33.99,29,100,5.34,MR,1633720865
Aljezur,37.3191,-8.8033,18.9,81,11,3.32,PT,1633720866
Raudeberg,61.9875,5.1352,14.37,93,100,0.89,NO,1633720866
Abay,49.6311,72.8539,-3.79,76,0,0.47,KZ,1633720867
Kudahuvadhoo,2.6708,72.8944,28.78,69,21,6.23,MV,1633720867
Valleyview,55.0667,-117.2859,7.02,49,100,3.09,CA,1633720867
Ewo,-0.8725,14.8206,24.9,84,99,1.76,CG,1633720868
Bairiki Village,1.3292,172.9752,26.0,89,40,3.6,KI,1633720869
Bathurst,-33.4166,149.5806,7.13,83,30,0.63,AU,1633720869
Vila,42.0304,-8.1588,16.23,80,8,0.32,PT,1633720870
Solnechnyy,50.7214,136.6319,2.31,52,99,1.63,RU,1633720870
Lodja,-3.4833,23.4333,23.48,78,6,0.71,CD,1633720870
Toppenish,46.3774,-120.3087,15.01,45,9,0.34,US,1633720871
Agüimes,27.9054,-15.4461,21.67,74,20,8.75,ES,1633720872
Ligayan,4.6533,119.4706,28.53,73,100,3.04,PH,1633720872
Kirakira,-10.4544,161.9205,26.02,88,100,4.21,SB,1633720873
Egvekinot,66.3167,-179.1667,-5.12,85,100,6.45,RU,1633720873
Mitú,1.1983,-70.1733,28.41,69,96,1.53,CO,1633720874
Yasnyy,51.0333,59.8742,5.8,58,5,1.33,RU,1633720874
Fort-Shevchenko,44.5086,50.263,10.11,43,0,5.17,KZ,1633720874
Kahului,20.8947,-156.47,27.13,85,40,5.14,US,1633720875
Awjilah,29.1081,21.2869,26.75,22,0,3.41,LY,1633720875
Milas,37.3164,27.7839,15.64,67,0,1.54,TR,1633720876
Río Gallegos,-51.6226,-69.2181,13.03,19,20,17.49,AR,1633720877
Plettenberg Bay,-34.0527,23.3716,16.47,73,100,3.0,ZA,1633720877
Areosa,41.7178,-8.8571,21.84,89,96,4.83,PT,1633720878
Kanniyākumāri,8.0833,77.5667,26.63,84,85,6.75,IN,1633720878
Merseburg,51.3667,12.0,11.49,81,0,3.09,DE,1633720713
Katobu,-4.9408,122.5276,23.66,87,100,1.2,ID,1633720879
Gouyave,12.1646,-61.7296,28.43,79,75,7.2,GD,1633720879
Camocim,-2.9022,-40.8411,29.94,65,49,8.24,BR,1633720880
Priargunsk,50.3691,119.1012,5.52,93,100,3.24,RU,1633720880
Sobolevo,54.4299,31.8996,4.03,73,0,1.54,RU,1633720881
Vieste,41.8825,16.175,16.28,84,100,6.9,IT,1633720881
Mabaruma,8.2,-59.7833,29.85,70,100,2.1,GY,1633720882
Kajaani,64.2273,27.7285,10.03,93,75,4.12,FI,1633720882
Tingi,-11.3,35.0333,19.43,51,0,0.78,TZ,1633720883
Dargaville,-35.9333,173.8833,13.99,84,100,4.54,NZ,1633720883
Nokha,27.6,73.4167,30.54,32,0,4.8,IN,1633720883
Chipinge,-20.1883,32.6236,18.11,65,0,2.73,ZW,1633720884
Nador,35.174,-2.9287,21.04,83,0,2.06,MA,1633720884
Tiarei,-17.5333,-149.3333,27.01,73,14,0.58,PF,1633720885
Simbahan,6.3032,120.5836,28.55,73,100,1.38,PH,1633720885
Kankan,10.3854,-9.3057,27.54,67,82,1.68,GN,1633720885
Paliā Kalān,28.45,80.5833,22.95,75,0,0.62,IN,1633720886
Penzance,50.1186,-5.5371,14.56,90,95,5.04,GB,1633720886
Oistins,13.0667,-59.5333,28.05,78,40,5.14,BB,1633720887
Ilo,-17.6394,-71.3375,18.48,72,75,5.14,PE,1633720887
Xinzhi,36.4989,111.7047,15.09,82,100,1.27,CN,1633720888
Jizan,17.3333,42.6667,26.52,62,100,2.89,SA,1633720888
Bokaro Steel City,23.7833,85.9667,25.09,78,5,1.98,IN,1633720889
Hay River,60.8156,-115.7999,5.99,70,75,2.57,CA,1633720889
Putineiu,43.9,25.7333,8.51,81,100,6.27,RO,1633720890
Oro Valley,32.3909,-110.9665,33.0,25,63,2.24,US,1633720890
Aksarka,66.5606,67.7975,2.56,71,100,8.11,RU,1633720890
San Buenaventura,27.0833,-101.5333,30.51,37,1,2.57,MX,1633720891
Ndago,-4.6,34.35,27.13,28,84,2.71,TZ,1633720891
Bilibino,68.0546,166.4372,-15.86,97,83,1.55,RU,1633720892
Portland,45.5234,-122.6762,15.43,73,40,1.34,US,1633720420
Puerto El Triunfo,13.2833,-88.55,34.51,67,99,3.75,SV,1633720892
Mahbūbābād,17.6167,80.0167,25.15,88,57,0.62,IN,1633720893
Zwedru,6.0667,-8.1281,24.71,86,98,0.95,LR,1633720893
Bonthe,7.5264,-12.505,26.16,86,85,3.05,SL,1633720894
Gorom-Gorom,14.4439,-0.2361,34.79,11,48,4.26,BF,1633720894
Correia Pinto,-27.5847,-50.3611,12.21,98,100,1.92,BR,1633720894
Puerto Escondido,15.85,-97.0667,30.46,66,90,3.09,MX,1633720896
Ibrā’,22.6906,58.5334,28.15,43,2,1.65,OM,1633720896
Jurm,36.8648,70.8342,10.31,47,0,0.85,AF,1633720897
Butembo,0.15,29.2833,14.84,95,43,1.22,CD,1633720897
Rodino,52.5,80.25,4.06,84,10,4.71,RU,1633720897
Coyhaique,-45.5752,-72.0662,15.34,51,40,3.6,CL,1633720898
Yining,29.0361,114.5636,20.43,92,100,1.4,CN,1633720898
Mattoon,39.4831,-88.3728,25.78,64,1,1.54,US,1633720899
Yeppoon,-23.1333,150.7333,19.88,86,3,3.69,AU,1633720899
Esso,55.9333,158.7,-2.9,88,100,1.2,RU,1633720899
Kitimat,54.0524,-128.6534,8.21,28,100,0.45,CA,1633720900
Vodyane,47.4875,34.4924,11.39,43,100,9.93,UA,1633720901
Luanda,-8.8368,13.2343,23.91,86,98,6.81,AO,1633720848
Terrace,54.5163,-128.6035,7.95,93,90,1.03,CA,1633720902
Codrington,-38.2667,141.9667,7.92,70,91,4.08,AU,1633720902
